City_ID,City,Lat,Lng,Max Temp,Humidity,Cloudiness,Wind Speed,Country,Date
0,west island,-12.1568,96.8225,23.99,78,75,9.77,CC,1690499668
1,grytviken,-54.2811,-36.5092,-2.28,84,100,4.61,GS,1690499668
2,kloulklubed,7.0419,134.2556,25.28,76,100,11.76,PW,1690499668
3,atafu village,-8.5421,-172.5159,28.07,78,27,7.35,TK,1690499669
4,yellowknife,62.456,-114.3525,24.29,31,75,5.14,CA,1690499669
5,happy valley-goose bay,53.3168,-60.3315,21.17,43,75,4.12,CA,1690499669
6,enewetak,11.3474,162.3373,28.21,80,100,7.19,MH,1690499670
7,bethel,41.3712,-73.414,30.26,89,20,0.0,US,1690499670
8,puerto natales,-51.7236,-72.4875,-2.96,92,74,1.26,CL,1690499670
9,raahe,64.6833,24.4833,15.54,76,100,1.07,FI,1690499671
10,bure,10.7,37.0667,13.65,96,100,1.18,ET,1690499671
11,metkovic,43.0542,17.6483,19.26,61,0,1.64,HR,1690499671
12,adamstown,-25.066,-130.1015,19.43,59,33,1.43,PN,1690499672
13,port-aux-francais,-49.35,70.2167,5.09,87,90,11.69,TF,1690499672
14,vilyuchinsk,52.9306,158.4028,12.15,91,100,0.43,RU,1690499672
15,sitangkai,4.6628,119.3928,28.23,80,100,9.25,PH,1690499673
16,cesky krumlov,48.8109,14.3152,17.08,82,100,2.67,CZ,1690499673
17,thompson,55.7435,-97.8558,14.09,67,75,3.09,CA,1690499673
18,papao,-17.75,-149.55,27.82,81,20,4.25,PF,1690499673
19,leh,34.1667,77.5833,14.77,73,96,2.25,IN,1690499674
20,cabugao,17.7931,120.4578,27.16,93,100,5.4,PH,1690499674
21,mugia,43.1041,-9.2179,17.73,94,97,6.63,ES,1690499674
22,neiafu,-18.65,-173.9833,22.38,83,100,0.0,TO,1690499674
23,san juan,-31.5375,-68.5364,14.85,41,26,6.0,AR,1690499380
24,tromso,69.6496,18.957,10.01,87,40,3.6,NO,1690499675
25,longonjo,-12.9067,15.2533,17.34,58,34,0.55,AO,1690499676
26,bilibino,68.0546,166.4372,12.23,64,93,1.92,RU,1690499676
27,college,64.8569,-147.8028,26.99,52,75,4.63,US,1690499676
28,moravsky krumlov,49.0489,16.3117,16.4,90,100,1.54,CZ,1690499676
29,saipan,15.1355,145.701,26.39,100,100,6.17,MP,1690499677
30,clarinda,40.7419,-95.0383,33.18,70,0,2.57,US,1690499677
31,nadi,-17.8,177.4167,24.0,64,40,6.69,FJ,1690499677
32,waitangi,-43.9535,-176.5597,9.34,86,47,5.36,NZ,1690499677
33,viqueque,-8.8673,126.3658,23.1,84,71,0.82,TL,1690499678
34,port elizabeth,-33.918,25.5701,12.16,94,0,3.09,ZA,1690499678
35,constantia,44.1833,28.65,16.5,71,18,8.33,RO,1690499678
36,katsuura,35.1333,140.3,27.35,74,9,3.7,JP,1690499679
37,puerto cabezas,14.0351,-83.3888,30.98,74,40,6.17,NI,1690499679
38,ostersund,63.1792,14.6357,13.12,35,20,2.24,SE,1690499679
39,puerto ayora,-0.7393,-90.3518,25.31,90,39,2.68,EC,1690499680
40,igarka,67.4667,86.5833,20.05,70,88,4.14,RU,1690499680
41,invercargill,-46.4,168.35,6.68,82,95,3.13,NZ,1690499680
42,brisas de zicatela,15.8369,-97.0419,30.41,64,86,2.1,MX,1690499681
43,fortuna,40.5982,-124.1573,21.63,70,0,6.69,US,1690499393
44,smithers,54.7804,-127.1743,17.18,67,75,0.0,CA,1690499681
45,vadso,70.0744,29.7487,12.49,93,68,3.09,NO,1690499682
46,tiksi,71.6872,128.8694,9.42,60,37,3.2,RU,1690499682
47,amos,48.5669,-78.1162,24.4,58,41,1.83,CA,1690499486
48,utrik,11.2278,169.8474,28.46,78,87,8.87,MH,1690499682
49,clewiston,26.7542,-80.9337,28.33,73,100,4.07,US,1690499683
50,saldanha,-33.0117,17.9442,6.03,79,0,1.36,ZA,1690499683
51,whitehorse,60.7161,-135.0538,25.01,49,75,4.63,CA,1690499558
52,fale old settlement,-9.3852,-171.2468,27.93,77,15,7.68,TK,1690499684
53,mar del plata,-38.0023,-57.5575,8.94,77,100,3.58,AR,1690499581
54,albany,42.6001,-73.9662,26.6,88,36,0.45,US,1690499502
55,aasiaat,68.7098,-52.8699,3.32,88,73,2.34,GL,1690499685
56,port mathurin,-19.6833,63.4167,23.43,77,16,5.3,MU,1690499685
57,monte santo,-10.4378,-39.3328,19.46,86,87,2.92,BR,1690499685
58,belle fourche,44.6714,-103.8522,26.73,18,78,5.02,US,1690499686
59,trujillo,-8.116,-79.03,21.98,83,75,4.63,PE,1690499648
60,duong dong,10.2167,103.9667,27.0,89,40,7.2,VN,1690499686
61,ushuaia,-54.8,-68.3,0.81,55,0,5.66,AR,1690499651
62,afaahiti,-17.75,-149.2833,26.93,85,40,4.35,PF,1690499687
63,nadym,65.5333,72.5167,18.97,76,86,2.11,RU,1690499687
64,blackmans bay,-43.0167,147.3167,12.07,75,79,3.93,AU,1690499687
65,at taj,24.2049,23.2857,30.72,12,100,2.47,LY,1690499688
66,aswan,24.0934,32.907,33.61,13,0,2.57,EG,1690499688
67,ribeira grande,38.5167,-28.7,22.65,97,79,2.68,PT,1690499688
68,korla,41.7597,86.1469,29.54,24,9,2.63,CN,1690499688
69,djambala,-2.5447,14.7533,26.11,42,69,1.9,CG,1690499689
70,bei'an,24.5399,109.533,26.64,83,80,1.97,CN,1690499689
71,tsiroanomandidy,-18.7667,46.0333,12.79,64,0,1.3,MG,1690499689
72,saint-francois,46.4154,3.9054,17.69,82,0,0.51,FR,1690499690
73,saint-philippe,-21.3585,55.7679,17.77,70,47,2.99,RE,1690499690
74,olonkinbyen,70.9221,-8.7187,4.89,89,100,5.65,SJ,1690499690
75,tolanaro,-25.0319,46.9987,18.32,73,57,4.3,MG,1690499690
76,punta arenas,-53.15,-70.9167,-1.66,85,7,2.12,CL,1690499690
77,bredasdorp,-34.5322,20.0403,9.19,90,0,1.6,ZA,1690499691
78,vorgashor,67.5833,63.95,14.09,93,94,1.22,RU,1690499691
79,longyearbyen,78.2186,15.6401,9.91,71,75,7.72,SJ,1690499691
80,vila do maio,15.1333,-23.2167,27.44,81,62,7.57,CV,1690499691
81,fort bragg,35.139,-79.006,33.32,53,0,3.09,US,1690499473
82,san antonio de pale,-1.4014,5.6325,23.16,89,96,5.27,GQ,1690499692
83,st. john's,47.5649,-52.7093,20.71,87,75,8.75,CA,1690499616
84,maragogi,-9.0122,-35.2225,23.59,88,31,3.99,BR,1690499692
85,caburan,5.9181,125.6411,26.28,84,100,4.66,PH,1690499693
86,kodinsk,58.6881,99.1844,17.79,80,27,0.29,RU,1690499693
87,mount pearl,47.5166,-52.7813,20.25,87,75,8.75,CA,1690499693
88,mountain home,43.133,-115.6912,34.71,17,0,5.36,US,1690499693
89,dilling,12.05,29.65,23.68,69,92,3.85,SD,1690499694
90,gaspe,48.8334,-64.4819,21.95,83,62,0.34,CA,1690499482
91,avarua,-21.2078,-159.775,25.03,65,95,2.06,CK,1690499694
92,makushino,55.2103,67.2442,16.63,77,84,1.58,RU,1690499694
93,villa gesell,-37.2639,-56.973,7.81,74,100,2.4,AR,1690499694
94,iqaluit,63.7506,-68.5145,8.85,76,40,4.63,CA,1690499695
95,yesilyurt,38.2972,38.2497,27.97,31,0,2.17,TR,1690499695
96,cerese,45.1195,10.7905,21.53,82,3,2.0,IT,1690499695
97,edinburgh of the seven seas,-37.0676,-12.3116,9.98,49,29,1.96,SH,1690499695
98,hanawa,40.1836,140.7872,27.58,74,60,2.15,JP,1690499696
99,la'ie,21.6477,-157.9253,31.98,65,18,5.93,US,1690499696
100,kalevala,65.2,31.1667,13.64,81,82,0.8,RU,1690499696
101,marica,-22.9194,-42.8186,23.95,88,20,4.32,BR,1690499696
102,petropavlovsk-kamchatsky,53.0452,158.6483,11.33,100,100,2.0,RU,1690499696
103,banyo,6.75,11.8167,18.46,95,92,1.22,CM,1690499697
104,sint michiel liber,12.15,-68.9833,28.9,84,20,5.66,CW,1690499697
105,kidal,18.4411,1.4078,34.27,21,49,3.58,ML,1690499697
106,pyoksong-up,38.0475,125.5567,26.09,86,11,2.21,KP,1690499698
107,uliastay,47.7417,96.8444,17.25,38,68,2.58,MN,1690499698
108,akureyri,65.6835,-18.0878,8.96,81,75,4.12,IS,1690499698
109,homer,59.6425,-151.5483,18.94,62,75,2.57,US,1690499698
110,uturoa,-16.7333,-151.4333,26.61,77,1,3.97,PF,1690499699
111,taltal,-25.4,-70.4833,15.54,86,58,3.13,CL,1690499699
112,murray bridge,-35.1167,139.2667,14.51,82,0,3.48,AU,1690499699
113,plymouth,41.8334,-70.8328,27.86,78,0,7.2,US,1690499415
114,piton saint-leu,-21.2196,55.3151,16.06,72,20,3.6,RE,1690499700
115,murzuq,25.9155,13.9184,32.19,13,3,4.76,LY,1690499700
116,tsetserleg,47.475,101.4542,11.48,79,17,2.0,MN,1690499700
117,dadukou,26.5479,101.7054,21.95,97,99,1.24,CN,1690499700
118,haiku-pauwela,20.9219,-156.3051,30.01,61,20,12.86,US,1690499701
119,stanley,54.868,-1.6985,16.21,87,75,2.57,GB,1690499701
120,papatowai,-46.5619,169.4708,8.0,76,88,2.95,NZ,1690499701
121,anadyr,64.75,177.4833,14.28,76,75,2.0,RU,1690499701
122,hinwil,47.2943,8.8439,17.36,82,1,2.06,CH,1690499702
123,ampanihy,-24.7,44.75,14.4,75,0,2.69,MG,1690499702
124,nacozari de garcia,30.3742,-109.6908,37.3,25,2,3.65,MX,1690499703
125,udachny,66.4167,112.4,16.92,55,86,1.18,RU,1690499703
126,mana,5.6592,-53.7767,26.3,86,32,4.57,GF,1690499704
127,wailua homesteads,22.0669,-159.378,30.24,73,0,7.2,US,1690499705
128,kodiak,57.79,-152.4072,13.73,82,100,4.12,US,1690499705
129,batouri,4.4333,14.3667,20.8,97,100,1.49,CM,1690499706
130,cobija,-11.0267,-68.7692,29.1,70,40,3.09,BO,1690499707
131,prado,-17.3411,-39.2208,21.86,81,84,2.7,BR,1690499708
132,badger,64.8,-147.5333,26.95,48,20,4.63,US,1690499581
133,holualoa,19.6228,-155.9522,27.65,79,75,4.12,US,1690499708
134,pergamino,-33.89,-60.5736,10.66,63,100,2.31,AR,1690499709
135,ugoofaaru,5.6667,73.0,28.08,73,88,1.97,MV,1690499709
136,hafar al-batin,28.4328,45.9708,34.32,11,0,2.06,SA,1690499710
137,revda,56.801,59.9303,17.06,93,83,2.71,RU,1690499710
138,urucui,-7.2294,-44.5561,27.26,32,13,2.58,BR,1690499711
139,hami,42.8,93.45,29.93,14,0,2.66,CN,1690499624
140,bandarbeyla,9.4942,50.8122,23.68,81,89,13.44,SO,1690499711
141,jamestown,42.097,-79.2353,24.45,79,100,6.17,US,1690499503
142,chonchi,-42.6128,-73.8092,10.07,98,98,1.35,CL,1690499712
143,tokoroa,-38.2333,175.8667,10.53,80,10,1.34,NZ,1690499712
144,broome,42.2506,-75.833,27.21,84,40,2.06,US,1690499712
145,marat,25.0701,45.4615,32.47,11,34,3.58,SA,1690499712
146,laguna,38.421,-121.4238,36.21,34,0,5.14,US,1690499439
147,xalisco,21.4531,-104.8993,29.47,58,40,6.17,MX,1690499713
148,margaret river,-33.95,115.0667,13.82,72,100,8.31,AU,1690499714
149,carnarvon,-24.8667,113.6333,14.08,67,0,5.85,AU,1690499714
150,dudinka,69.4058,86.1778,20.9,62,14,2.98,RU,1690499714
151,ilulissat,69.2167,-51.1,5.01,93,20,0.51,GL,1690499714
152,banfora,10.6333,-4.7667,26.18,76,100,2.37,BF,1690499715
153,mhamid,29.82,-5.72,36.39,9,0,3.65,MA,1690499715
154,richards bay,-28.783,32.0377,17.39,93,0,2.42,ZA,1690499715
155,nova sintra,14.8667,-24.7167,22.49,81,53,7.33,CV,1690499716
156,magong,23.5654,119.5863,27.61,94,100,26.94,TW,1690499716
157,kayangel,8.0823,134.7173,26.91,82,100,13.94,PW,1690499717
158,moyale,3.5167,39.0584,19.78,67,94,6.26,KE,1690499717
159,sabang,5.8933,95.3214,27.82,79,100,9.42,ID,1690499717
160,urzhar,47.093,81.6294,24.45,42,90,2.23,KZ,1690499717
161,port alfred,-33.5906,26.891,15.21,84,0,5.0,ZA,1690499718
162,sangkhla buri,15.1555,98.4536,23.09,99,97,0.65,TH,1690499718
163,capinopolis,-18.6819,-49.5697,24.52,27,25,0.61,BR,1690499719
164,georgetown,5.4112,100.3354,27.96,83,20,0.0,MY,1690499594
165,yelizovo,53.1873,158.3805,12.08,100,100,2.0,RU,1690499719
166,sitka,57.0531,-135.33,18.94,72,40,3.6,US,1690499719
167,east london,-33.0153,27.9116,15.3,83,0,3.57,ZA,1690499720
168,baruun-urt,46.6806,113.2792,19.02,54,25,4.07,MN,1690499720
169,yaren,-0.5472,166.916,28.29,77,82,4.47,NR,1690499720
170,kachug,53.9606,105.8817,16.69,83,95,1.37,RU,1690499721
171,whakatane,-37.9585,176.9854,13.82,68,28,2.24,NZ,1690499721
172,argo,37.6333,22.7333,27.1,79,0,0.4,GR,1690499721
173,betio village,1.358,172.9211,31.02,74,64,5.57,KI,1690499722
174,bayanhongor,46.7167,100.1167,13.29,53,26,0.77,MN,1690499722
175,inzhavino,52.3185,42.4937,20.6,62,1,3.68,RU,1690499722
176,parham,17.0968,-61.7705,27.83,71,20,2.06,AG,1690499723
177,kletskaya,49.3145,43.0584,24.26,40,0,3.75,RU,1690499723
178,beatrice,40.2681,-96.747,36.05,38,0,5.14,US,1690499723
179,fort st. john,56.2499,-120.8529,19.94,49,75,2.57,CA,1690499724
180,sao joao da barra,-21.6403,-41.0511,22.05,84,1,7.54,BR,1690499724
181,fauske,67.2588,15.3918,13.76,90,33,0.47,NO,1690499724
182,karatsu,33.4425,129.9697,27.94,81,100,1.11,JP,1690499725
183,vernon,50.2581,-119.2691,29.96,22,100,1.54,CA,1690499490
184,christchurch,-43.5333,172.6333,10.18,85,75,2.06,NZ,1690499523
185,okahao,-17.885,15.0667,18.28,23,5,3.04,NA,1690499725
186,ula,22.7225,88.5556,26.99,94,75,2.57,IN,1690499726
187,hawaiian paradise park,19.5933,-154.9731,28.35,77,100,6.17,US,1690499726
188,zaozersk,69.4005,32.4476,9.22,95,54,1.08,RU,1690499727
189,arvayheer,46.2639,102.775,15.12,60,81,1.82,MN,1690499727
190,camana,-16.6228,-72.7111,17.92,81,31,3.38,PE,1690499727
191,ruidoso,33.3317,-105.673,32.08,14,0,8.23,US,1690499727
192,ust'-ilimsk,58.0006,102.6619,18.44,79,100,0.72,RU,1690499728
193,olyokminsk,60.3736,120.4264,21.58,71,11,2.36,RU,1690499662
194,preobrazheniye,42.9019,133.9064,24.58,76,30,3.17,RU,1690499729
195,trairi,-3.2778,-39.2689,26.14,83,6,5.65,BR,1690499608
196,flying fish cove,-10.4217,105.6791,23.82,88,75,7.2,CX,1690499730
197,sant carles de la rapita,40.6167,0.6,23.54,86,4,2.85,ES,1690499730
198,tidjikja,18.5564,-11.4271,34.2,19,12,4.14,MR,1690499731
199,malanje,-9.5402,16.341,19.81,54,35,2.07,AO,1690499731
200,gerash,27.6652,54.1371,32.21,51,80,1.43,IR,1690499732
201,kapuskasing,49.4169,-82.4331,27.05,57,40,4.63,CA,1690499732
202,qaqortoq,60.7167,-46.0333,7.13,72,100,0.82,GL,1690499732
203,greymouth,-42.4667,171.2,7.72,65,46,3.37,NZ,1690499733
204,antonio enes,-16.2325,39.9086,20.69,79,0,2.11,MZ,1690499733
205,port augusta,-32.5,137.7667,14.63,69,55,1.41,AU,1690499733
206,lospalos,-8.5186,127.0025,21.44,87,58,3.06,TL,1690499734
207,roma,43.2128,-75.4557,26.08,75,75,4.12,US,1690499734
208,mount isa,-20.7333,139.5,16.87,88,40,0.0,AU,1690499734
209,kulhudhuffushi,6.6221,73.07,27.9,75,25,2.7,MV,1690499734
210,lihue,21.9789,-159.3672,30.58,66,0,7.2,US,1690499735
211,razdol'noye,45.7708,33.4878,20.49,89,100,4.83,UA,1690499735
212,colonia,50.9333,6.95,17.81,90,100,3.09,DE,1690499735
213,codrington,-38.2667,141.9667,11.47,93,45,5.26,AU,1690499736
214,chibougamau,49.9168,-74.3659,20.79,40,35,2.15,CA,1690499736
215,tura,25.5198,90.2201,23.37,98,100,2.53,IN,1690499736
216,rongelap,11.1635,166.8941,28.7,80,100,9.03,MH,1690499737
217,parauapebas,-6.0675,-49.9022,26.46,40,2,0.63,BR,1690499634
218,haldia,22.0605,88.1097,27.91,85,98,5.41,IN,1690499737
219,kharkhorin,47.1975,102.8238,14.21,71,59,0.54,MN,1690499738
220,puerto baquerizo moreno,-0.9,-89.6,24.6,78,24,5.45,EC,1690499738
221,nemuro,43.3236,145.575,17.12,97,75,0.72,JP,1690499739
222,kattivakkam,13.2167,80.3167,29.05,74,90,6.1,IN,1690499739
223,la romana,18.4273,-68.9728,29.2,79,75,0.0,DO,1690499703
224,cabo san lucas,22.8909,-109.9124,35.61,62,0,7.72,MX,1690499740
225,adamovka,51.5223,59.9396,21.79,54,2,3.02,RU,1690499740
226,phrae,18.0833,100.0,24.37,94,100,0.51,TH,1690499740
227,graham,47.0529,-122.2943,27.21,41,0,0.0,US,1690499693
228,mawlamyinegyunn,16.3833,95.2667,26.06,91,98,2.69,MM,1690499741
229,markovo,57.3206,107.0881,18.11,94,99,0.95,RU,1690499741
230,san andres,12.5847,-81.7006,30.01,74,75,5.66,CO,1690499709
231,nguigmi,14.2495,13.1092,30.12,44,100,1.52,NE,1690499741
232,hamilton,39.1834,-84.5333,31.29,78,20,3.09,US,1690499447
233,aras-asan,8.8908,126.3033,24.66,93,100,0.96,PH,1690499742
234,qarqaraly,49.4058,75.4742,15.1,88,99,1.23,KZ,1690499742
235,isafjordur,66.0755,-23.124,6.98,91,98,4.03,IS,1690499742
236,kerikeri,-35.2268,173.9474,13.28,84,12,0.89,NZ,1690499743
237,alesund,62.4723,6.1549,16.06,93,75,3.6,NO,1690499743
238,araguaina,-7.1911,-48.2072,27.29,33,9,1.27,BR,1690499709
239,tazovsky,67.4667,78.7,15.3,95,64,2.72,RU,1690499743
240,huarmey,-10.0681,-78.1522,21.41,76,16,5.24,PE,1690499744
241,mae hong son,19.3003,97.9685,26.08,83,75,1.03,TH,1690499744
242,alice springs,-23.7,133.8833,15.75,88,40,0.0,AU,1690499744
243,boguchany,58.3814,97.4531,17.17,85,95,0.44,RU,1690499745
244,angra do heroismo,38.65,-27.2167,24.34,97,40,5.36,PT,1690499745
245,crane,31.3974,-102.3501,36.4,19,18,7.91,US,1690499745
246,grand-bassam,5.2118,-3.7388,25.98,93,22,2.89,CI,1690499745
247,kenai,60.5544,-151.2583,17.05,78,100,5.14,US,1690499746
248,nyurba,63.2842,118.3319,18.06,59,39,2.47,RU,1690499703
249,belyy yar,53.6039,91.3903,18.94,88,0,3.0,RU,1690499746
250,dali,25.7,100.1833,18.5,93,76,1.46,CN,1690499746
251,ceelbuur,4.685,46.6176,23.39,74,62,8.26,SO,1690499747
252,merizo village,13.2658,144.6691,25.32,97,100,6.83,GU,1690499747
253,qamdo,31.1667,97.2333,5.26,73,99,1.67,CN,1690499747
254,coquimbo,-29.9533,-71.3436,12.85,87,0,2.57,CL,1690499748
255,lorengau,-2.0226,147.2712,28.08,77,84,2.01,PG,1690499748
256,bardai,11.65,7.2333,23.48,78,100,4.05,NG,1690499748
257,itaituba,-4.2761,-55.9836,30.52,39,39,0.96,BR,1690499748
258,new norfolk,-42.7826,147.0587,12.73,72,59,3.88,AU,1690499749
259,freeport,40.6576,-73.5832,32.98,76,0,7.2,US,1690499617
260,bonne terre,37.9231,-90.5554,36.2,22,1,2.82,US,1690499749
261,kapa'a,22.0752,-159.319,30.99,73,0,7.2,US,1690499749
262,amol,36.4696,52.3507,23.1,75,0,1.71,IR,1690499749
263,port lincoln,-34.7333,135.8667,13.61,87,10,5.87,AU,1690499750
264,vila velha,-20.3297,-40.2925,21.97,89,75,3.09,BR,1690499575
265,iskateley,67.6803,53.1512,14.49,92,100,2.17,RU,1690499750
266,mega,4.05,38.3,14.65,78,92,6.14,ET,1690499752
267,divnomorskoye,44.5011,38.1353,24.27,76,97,5.29,RU,1690499752
268,kamaishi,39.2667,141.8833,27.02,69,6,0.18,JP,1690499752
269,as sulayyil,20.4607,45.5779,33.14,13,77,3.19,SA,1690499753
270,san rafael,-34.6177,-68.3301,10.38,46,31,2.53,AR,1690499753
271,gokwe,-18.2048,28.9349,12.59,57,0,1.47,ZW,1690499753
272,kralendijk,12.15,-68.2667,28.99,79,0,8.75,BQ,1690499754
273,severo-yeniseyskiy,60.3725,93.0408,14.33,92,73,1.42,RU,1690499754
274,thinadhoo,0.5333,72.9333,28.11,78,80,5.02,MV,1690499754
275,bartica,6.4,-58.6167,28.18,98,40,1.39,GY,1690499755
276,port blair,11.6667,92.75,28.02,83,40,4.63,IN,1690499755
277,mariinsk,56.2139,87.7472,15.59,86,84,0.98,RU,1690499755
278,carutapera,-1.195,-46.02,25.61,85,34,3.62,BR,1690499755
279,yakeshi,49.2833,120.7333,18.58,81,9,2.71,CN,1690499756
280,wakkanai,45.4094,141.6739,20.63,96,53,7.08,JP,1690499756
281,dhidhdhoo,6.8833,73.1,27.98,75,15,3.24,MV,1690499730
282,tazacorte,28.629,-17.9293,22.54,80,0,6.69,ES,1690499757
283,magadan,59.5667,150.8,18.63,58,4,3.21,RU,1690499757
284,mermoz boabab,14.7065,-17.4758,28.88,70,75,6.17,SN,1690499758
285,talnakh,69.4865,88.3972,20.67,57,17,2.08,RU,1690499758
286,polyarnyy,69.1989,33.4478,11.12,93,80,0.79,RU,1690499758
287,staryye ozinki,51.1786,49.6769,25.9,47,56,2.84,RU,1690499758
288,colac,-38.3333,143.5833,10.65,94,67,4.78,AU,1690499759
289,kazanskoye,55.6448,69.235,17.7,73,93,2.64,RU,1690499759
290,harper,4.375,-7.7169,24.68,90,94,4.46,LR,1690499759
291,kez,57.8979,53.7152,16.74,99,36,2.4,RU,1690499759
292,freetown,8.484,-13.2299,25.42,88,61,3.09,SL,1690499760
293,burgas,42.5061,27.4678,17.06,82,1,4.12,BG,1690499510
294,chernyshevsk,52.5243,117.0174,16.27,86,36,0.51,RU,1690499760
295,onega,63.9061,38.1404,12.78,79,57,2.05,RU,1690499760
296,revelstoke,50.9832,-118.2023,20.01,56,75,4.63,CA,1690499761
297,bluefields,12.0137,-83.7635,30.04,74,40,2.06,NI,1690499761
298,belmonte,-15.8631,-38.8828,22.98,85,100,4.09,BR,1690499761
299,mineral wells,32.8085,-98.1128,39.11,22,0,6.69,US,1690499762
300,umm kaddadah,13.6017,26.6876,28.1,53,18,3.57,SD,1690499762
301,juneau,58.3019,-134.4197,21.72,100,75,6.17,US,1690499489
302,hadibu,12.65,54.0333,25.07,80,100,9.77,YE,1690499763
303,floro,61.5996,5.0328,14.04,94,6,3.6,NO,1690499467
304,cherdyn',60.403,56.4787,16.24,97,34,3.88,RU,1690499763
305,kirensk,57.7853,108.1119,18.21,93,97,0.5,RU,1690499764
306,kone,-21.0595,164.8658,22.04,44,79,2.99,NC,1690499764
307,praia da vitoria,38.7333,-27.0667,24.14,94,40,3.07,PT,1690499764
308,urangan,-25.3,152.9,18.54,74,76,4.34,AU,1690499765
309,cacheu,12.2706,-16.1658,28.05,86,75,1.66,GW,1690499765
310,korets,50.6165,27.1605,10.9,90,68,4.52,UA,1690499765
311,lahij,13.1667,44.5833,31.54,48,100,1.97,YE,1690499765
312,nova vicosa,-17.8919,-39.3719,21.89,80,66,3.1,BR,1690499766
313,mgandu,-5.95,34.1333,14.68,61,0,3.64,TZ,1690499766
314,old town,50.087,14.4202,17.23,93,75,6.69,CZ,1690499766
315,kirakira,-10.4544,161.9205,26.83,86,95,6.77,SB,1690499767
316,sorong,-0.8833,131.25,24.82,88,100,4.19,ID,1690499767
317,wanning,18.8003,110.3967,27.58,79,100,3.28,CN,1690499768
318,shendi,16.6915,33.4341,32.88,39,45,5.95,SD,1690499768
319,pontianak,-0.0333,109.3333,23.99,88,20,3.09,ID,1690499732
320,tvoroyri,61.5556,-6.8111,11.5,88,85,9.8,FO,1690499769
321,massawa,15.6097,39.45,35.67,41,14,4.37,ER,1690499769
322,salekhard,66.53,66.6019,15.15,93,51,2.95,RU,1690499770
323,rakops,-21.0167,24.3333,16.8,39,3,2.95,BW,1690499770
324,melfort,52.8667,-104.6177,15.07,63,97,4.12,CA,1690499770
325,hithadhoo,-0.6,73.0833,28.26,79,97,6.33,MV,1690499771
326,vangaindrano,-23.35,47.6,18.4,74,98,0.47,MG,1690499771
327,kananga,-5.8958,22.4178,22.26,28,6,1.61,CD,1690499771
328,kolpino,59.7507,30.5886,15.04,87,75,4.0,RU,1690499772
329,ciudad lazaro cardenas,17.9583,-102.2,31.62,60,98,4.92,MX,1690499772
330,arraial do cabo,-22.9661,-42.0278,21.95,85,3,9.8,BR,1690499772
331,mandan,46.8267,-100.8896,31.99,39,0,5.66,US,1690499690
332,barakani,-12.1356,44.4317,24.13,74,33,3.96,KM,1690499773
333,klaksvik,62.2266,-6.589,12.51,95,100,5.89,FO,1690499773
334,naze,28.3667,129.4833,28.51,84,84,6.54,JP,1690499774
335,khovd,48.0056,91.6419,21.19,29,12,2.98,MN,1690499774
336,karaton,-6.3424,106.1045,21.78,93,93,0.68,ID,1690499775
337,morehead city,34.7229,-76.726,31.01,79,0,6.69,US,1690499775
338,ad dilam,23.9915,47.1627,34.23,15,58,1.28,SA,1690499776
339,xilin hot,43.9667,116.0333,19.85,75,100,3.4,CN,1690499776
340,as-suwayda,32.709,36.5695,23.86,21,0,1.78,SY,1690499776
341,port macquarie,-31.4333,152.9167,16.61,54,2,2.18,AU,1690499651
342,rabaul,-4.1967,152.1721,27.9,72,99,3.59,PG,1690499778
343,shingu,33.7333,135.9833,28.31,75,33,1.52,JP,1690499780
344,weno,7.4515,151.8468,27.85,77,95,5.8,FM,1690499781
345,sandnessjoen,66.0217,12.6316,12.29,93,45,1.61,NO,1690499781
346,mukalla,14.5425,49.1242,28.11,80,43,2.59,YE,1690499782
347,minas de marcona,-15.2119,-75.1103,14.96,71,0,5.36,PE,1690499782
348,tashla,51.7716,52.7427,23.93,56,55,0.43,RU,1690499783
349,ouadda,8.0777,22.4007,20.31,97,70,0.98,CF,1690499783
350,mata-utu,-13.2816,-176.1745,27.32,74,99,5.83,WF,1690499783
351,quellon,-43.1167,-73.6167,10.14,93,100,3.6,CL,1690499704
352,hermanus,-34.4187,19.2345,7.67,77,0,1.4,ZA,1690499784
353,tubarjal,30.4999,38.216,31.03,17,0,6.23,SA,1690499785
354,punta cana,18.5818,-68.4043,28.87,74,40,2.06,DO,1690499785
355,moussoro,13.6408,16.4901,29.84,53,98,3.58,TD,1690499786
356,pariaman,-0.619,100.12,23.03,85,98,1.21,ID,1690499786
357,konarka,19.9,86.1167,27.22,86,54,7.1,IN,1690499786
358,hasaki,35.7333,140.8333,30.22,74,14,4.51,JP,1690499787
359,ad dasmah,29.365,48.0014,39.38,23,3,5.91,KW,1690499787
360,kamina,-8.7386,24.9906,17.56,35,42,1.8,CD,1690499787
361,karlshamn,56.1706,14.8619,13.27,87,11,1.47,SE,1690499788
362,san pedro pochutla,15.7333,-96.4667,32.06,60,94,2.27,MX,1690499788
363,port douglas,-16.4833,145.4667,22.64,75,82,5.22,AU,1690499661
364,susuman,62.7833,148.1667,7.21,85,100,1.26,RU,1690499789
365,kavaratti,10.5669,72.642,28.11,76,99,6.76,IN,1690499789
366,corumba,-19.0092,-57.6533,25.97,43,1,1.92,BR,1690499790
367,pasighat,28.0667,95.3333,24.79,92,95,0.56,IN,1690499790
368,awjilah,29.1081,21.2869,28.32,65,25,7.23,LY,1690499697
369,mujiayingzi,42.1167,118.7833,21.44,78,100,2.99,CN,1690499791
370,arkhangel'sk,64.5401,40.5433,11.14,86,3,0.37,RU,1690499568
371,katsuren-haebaru,26.3369,127.8719,30.22,74,75,5.14,JP,1690499723
372,saudarkrokur,65.7461,-19.6394,7.98,92,18,3.56,IS,1690499791
373,kawambwa,-9.7915,29.0791,14.08,53,29,2.16,ZM,1690499792
374,vanino,49.0869,140.2543,22.12,79,100,0.78,RU,1690499792
375,puerto colombia,10.9878,-74.9547,29.05,83,93,3.72,CO,1690499792
376,novodvinsk,64.4165,40.8122,10.79,86,12,0.31,RU,1690499793
377,palmer,42.1584,-72.3287,24.23,100,75,0.0,US,1690499793
378,astrakhan,46.3497,48.0408,22.93,68,0,4.02,RU,1690499793
379,tabou,4.423,-7.3528,24.35,92,87,3.47,CI,1690499794
380,el alto,-4.2714,-81.2147,24.81,77,14,7.53,PE,1690499794
381,labrador city,52.9463,-66.9114,10.95,93,75,3.09,CA,1690499712
382,stephenville,32.2207,-98.2023,38.44,22,0,4.12,US,1690499795
383,nappanee,41.4428,-86.0014,32.72,59,0,2.94,US,1690499795
384,taree,-31.9,152.4667,16.23,79,0,1.88,AU,1690499795
385,san pedro,14.35,121.0167,25.66,95,75,1.03,PH,1690499551
386,egilsstadir,65.2653,-14.3948,7.95,87,75,2.06,IS,1690499796
387,nuuk,64.1835,-51.7216,11.6,62,100,2.71,GL,1690499797
388,sorsk,54.0033,90.2467,15.17,85,100,1.08,RU,1690499798
389,vorkuta,67.5,64.0,14.47,92,97,0.95,RU,1690499798
390,brookings,44.3114,-96.7984,35.14,58,40,2.06,US,1690499595
391,pingyin,36.2831,116.4453,25.41,91,98,3.22,CN,1690499799
392,narwana,29.6167,76.1167,28.11,82,97,2.63,IN,1690499799
393,lahore,31.5497,74.3436,28.06,89,40,2.57,PK,1690499524
394,keflavik,64.0049,-22.5624,11.95,87,0,4.63,IS,1690499802
395,mossel bay,-34.1831,22.146,8.96,89,0,3.36,ZA,1690499802
396,rikaze,29.25,88.8833,10.15,87,100,1.57,CN,1690499802
397,selfoss,63.9331,-20.9971,9.47,88,84,2.02,IS,1690499803
398,nikolayevsk-on-amure,53.1406,140.73,24.94,56,7,1.35,RU,1690499803
399,horazdovice,49.3207,13.701,15.76,85,100,4.0,CZ,1690499803
400,kavieng,-2.5744,150.7967,27.67,81,46,5.16,PG,1690499803
401,illapel,-31.6308,-71.1653,16.54,60,37,0.7,CL,1690499772
402,usogorsk,63.4106,48.6872,14.65,97,100,3.74,RU,1690499804
403,bubaque,11.2833,-15.8333,27.91,85,100,5.24,GW,1690499804
404,fruita,39.1589,-108.729,36.64,16,0,3.6,US,1690499549
405,den burg,53.0542,4.7972,18.87,95,75,5.66,NL,1690499805
406,aykhal,66.0,111.5,18.33,48,89,1.14,RU,1690499805
407,ulaangom,49.9811,92.0667,19.18,48,96,1.46,MN,1690499805
408,columbus,39.9612,-82.9988,32.45,72,75,5.14,US,1690499700
409,pacific grove,36.6177,-121.9166,28.45,80,0,5.14,US,1690499806
410,bebedouro,-20.9494,-48.4792,22.59,35,4,2.59,BR,1690499806
411,tagta,41.6504,59.9164,25.97,47,0,4.12,TM,1690499806
412,tsiombe,-25.3,45.4833,17.28,71,0,4.5,MG,1690499807
413,zeya,53.75,127.2667,18.06,95,100,1.26,RU,1690499807
414,dakhla,23.6848,-15.958,20.04,87,0,10.88,EH,1690499807
415,darwin,-12.4611,130.8418,23.99,73,0,0.89,AU,1690499808
416,cidade velha,14.9167,-23.6167,27.26,74,20,7.72,CV,1690499808
417,santana,-0.0583,-51.1817,25.1,100,100,2.06,BR,1690499572
418,nayudupet,13.9,79.9,27.35,63,94,5.92,IN,1690499808
419,sinabang,2.4803,96.3801,26.34,83,60,1.07,ID,1690499809
420,corn island,12.1694,-83.0418,28.14,83,100,6.25,NI,1690499809
421,bikenibeu village,1.3673,173.1241,30.98,74,40,2.57,KI,1690499809
422,kingston,17.997,-76.7936,30.13,69,73,0.89,JM,1690499608
423,kermit,31.8576,-103.0927,37.91,17,20,5.14,US,1690499532
424,east ballina,-28.8667,153.5833,17.11,62,0,2.66,AU,1690499810
425,chivhu,-19.0211,30.8922,10.35,61,0,1.77,ZW,1690499810
426,cill airne,52.05,-9.5167,12.11,93,100,2.12,IE,1690499810
427,guerrero negro,27.9769,-114.0611,28.34,48,8,6.18,MX,1690499811
428,harnai,30.1005,67.9374,27.55,76,42,1.18,PK,1690499811
429,hovd,48.0056,91.6419,21.19,29,12,2.98,MN,1690499654
430,saint-georges,12.0564,-61.7485,28.82,84,75,6.69,GD,1690499811
431,geraldton,-28.7667,114.6,11.23,93,100,5.14,AU,1690499812
432,amuntai,-2.4177,115.2494,21.59,89,69,0.7,ID,1690499812
433,mahina,-17.5065,-149.489,27.87,74,75,2.06,PF,1690499812
434,palikir - national government center,6.9248,158.1611,29.47,79,100,2.57,FM,1690499812
435,tralee,52.2704,-9.7026,12.61,90,100,2.3,IE,1690499812
436,islamorada,24.9243,-80.6278,30.0,91,86,4.02,US,1690499813
437,ambodifotatra,-16.9833,49.85,22.96,65,30,6.74,MG,1690499813
438,santa cruz,-17.8,-63.1667,18.03,88,40,3.09,BO,1690499780
439,zherdevka,51.8486,41.4606,21.34,56,8,4.17,RU,1690499813
440,nar'yan-mar,67.6713,53.087,14.57,93,100,2.47,RU,1690499814
441,kongsberg,59.6652,9.6465,11.09,95,55,0.65,NO,1690499814
442,ramgarh,23.6333,85.5167,25.61,95,54,2.17,IN,1690499814
443,buenavista del norte,28.3746,-16.861,25.58,71,1,7.3,ES,1690499814
444,da nang,16.0678,108.2208,28.99,70,20,1.54,VN,1690499815
445,usinsk,65.9939,57.5281,14.84,88,97,3.25,RU,1690499815
446,lata,40.1629,-8.3327,13.94,96,1,0.69,PT,1690499815
447,ta`u,-14.2336,-169.5144,26.23,70,46,6.27,AS,1690499815
448,sinan,34.8262,126.1086,24.87,92,100,5.15,KR,1690499519
449,miranda do douro,41.4969,-6.2731,18.66,54,8,3.87,PT,1690499816
450,mabaruma,8.2,-59.7833,25.16,90,11,1.69,GY,1690499816
451,portland,45.5234,-122.6762,30.29,39,20,5.66,US,1690499557
452,ust-nera,64.5667,143.2,12.65,58,51,1.91,RU,1690499817
453,chipiona,36.7366,-6.437,19.12,88,0,0.0,ES,1690499817
454,kabalo,-6.05,26.9167,23.54,34,18,1.34,CD,1690499817
455,masterton,-40.9597,175.6575,9.94,92,98,3.45,NZ,1690499817
456,koryazhma,61.3143,47.1691,13.77,99,48,2.52,RU,1690499675
457,vila franca do campo,37.7167,-25.4333,23.23,94,46,4.21,PT,1690499818
458,gouyave,12.1646,-61.7296,28.43,84,75,6.69,GD,1690499818
459,dehloran,32.6941,47.2679,35.98,10,2,3.68,IR,1690499818
460,skowhegan,44.7651,-69.7192,25.28,85,100,2.01,US,1690499818
461,pisco,-13.7,-76.2167,20.03,77,0,5.14,PE,1690499819
462,geneva,41.8875,-88.3054,33.91,60,20,2.57,US,1690499819
463,taoudenni,22.6783,-3.9836,39.53,18,32,2.23,ML,1690499819
464,ketchikan,55.3422,-131.6461,22.26,56,0,6.69,US,1690499820
465,"las vegas, santa barbara",36.175,-115.1372,45.38,7,0,8.94,US,1690499710
466,ammi moussa,35.8678,1.1114,27.84,73,78,2.01,DZ,1690499820
467,bulungu,-4.55,18.6,24.29,31,10,1.28,CD,1690499821
468,hobyo,5.3505,48.5268,24.22,86,96,11.32,SO,1690499821
469,la passe,45.5549,-0.8967,20.55,91,52,5.19,FR,1690499821
470,tateyama,34.9833,139.8667,27.07,76,25,3.96,JP,1690499821
471,am timan,11.0297,20.2827,23.3,89,76,1.7,TD,1690499822
472,caleta de carquin,-11.0925,-77.6267,20.29,76,46,5.45,PE,1690499823
473,san julian,21.0167,-102.1667,26.73,25,20,1.79,MX,1690499823
474,lompoc,34.6391,-120.4579,30.08,72,40,8.05,US,1690499765
475,namibe,-15.1961,12.1522,15.58,83,33,3.71,AO,1690499824
476,northam,51.0333,-4.2167,18.14,97,40,3.62,GB,1690499825
477,sur,22.5667,59.5289,28.2,73,98,5.31,OM,1690499712
478,kangding,30.0513,101.9603,15.38,99,100,0.79,CN,1690499825
479,kuqa,41.7278,82.9364,29.25,26,83,2.78,CN,1690499826
480,ronne,55.1009,14.7066,16.95,88,75,4.63,DK,1690499826
481,cuyo,10.8525,121.0086,28.65,78,100,10.22,PH,1690499826
482,corralillo,22.9819,-80.5856,29.75,71,41,6.52,CU,1690499827
483,nouadhibou,20.931,-17.0347,22.99,68,7,10.29,MR,1690499733
484,bac lieu,9.285,105.7244,26.39,87,91,6.05,VN,1690499827
485,mongo,12.1844,18.693,25.54,73,47,2.47,TD,1690499827
486,island harbour,50.724,-1.2758,18.29,95,100,0.89,GB,1690499828
487,labasa,-16.4167,179.3833,23.39,72,91,5.43,FJ,1690499828
488,itoman,26.1247,127.6694,30.22,79,75,6.69,JP,1690499677
489,narvik,68.4384,17.4272,14.1,98,2,1.36,NO,1690499829
490,lamu,-2.2717,40.902,25.12,84,6,7.51,KE,1690499829
491,rio gallegos,-51.6226,-69.2181,-2.61,78,18,4.34,AR,1690499829
492,sodankyla,67.4167,26.6,14.92,79,75,1.04,FI,1690499830
493,princeville,45.7668,-61.2985,24.64,83,100,4.63,CA,1690499830
494,gadzhiyevo,69.2551,33.3362,9.94,95,81,0.94,RU,1690499830
495,vanimo,-2.6741,141.3028,26.72,84,87,1.54,PG,1690499831
496,solnechnyy,50.7214,136.6319,20.91,89,100,1.61,RU,1690499831
497,lysekil,58.2743,11.4358,10.57,83,0,3.25,SE,1690499831
498,toliara,-23.35,43.6667,17.75,57,0,2.48,MG,1690499832
499,mantyharju,61.4167,26.8833,14.06,79,100,1.55,FI,1690499832
500,kristiansund,63.1115,7.732,15.03,94,100,3.09,NO,1690499832
501,kasimov,54.9411,41.3953,20.43,75,19,3.84,RU,1690499833
502,luanda,-8.8368,13.2343,20.0,91,14,4.31,AO,1690499690
503,hauterive,46.0901,3.4459,20.42,69,0,2.02,FR,1690499833
504,salinas,36.6777,-121.6555,30.45,72,0,5.14,US,1690499834
505,inhambane,-23.865,35.3833,18.96,76,0,3.57,MZ,1690499834
506,labytnangi,66.6572,66.4183,15.34,92,59,2.75,RU,1690499834
507,visby,57.6409,18.296,15.46,94,75,2.57,SE,1690499834
508,chui,-33.6971,-53.4616,9.89,78,67,1.88,UY,1690499835
509,murmashi,68.8154,32.8115,11.23,100,76,0.0,RU,1690499835
510,posse,-14.0931,-46.3694,23.87,34,49,3.04,BR,1690499835
511,togur,58.3631,82.8265,14.52,92,41,1.07,RU,1690499836
512,paso del macho,18.9667,-96.7167,24.02,91,100,1.15,MX,1690499829
513,dzitbalche,20.3167,-90.05,34.89,41,98,1.79,MX,1690499836
514,bafoulabe,13.8065,-10.8321,29.38,71,78,1.57,ML,1690499837
515,parry sound,45.3501,-80.033,25.03,65,2,3.43,CA,1690499837
516,quimili,-27.6333,-62.4167,13.66,57,94,3.79,AR,1690499837
517,akrehamn,59.2667,5.1833,13.89,88,3,2.57,NO,1690499837
518,twentynine palms,34.1356,-116.0542,43.41,10,20,1.34,US,1690499838
519,salalah,17.0151,54.0924,26.05,89,100,4.63,OM,1690499838
520,petushki,55.9264,39.461,18.71,87,76,2.83,RU,1690499838
521,abepura,-2.6333,140.5833,26.45,83,40,1.54,ID,1690499839
522,ilebo,-4.3167,20.5833,22.6,37,11,0.81,CD,1690499839
523,lautoka,-17.6167,177.4667,23.92,64,40,6.69,FJ,1690499839
524,iola,37.9245,-95.4,33.09,49,0,3.09,US,1690499800
525,shizuishan,39.2333,106.7694,21.09,69,0,4.78,CN,1690499573
526,faya-largeau,17.9257,19.1043,31.7,13,48,0.44,TD,1690499668
527,bastad,56.4269,12.8534,13.81,97,11,1.54,SE,1690499840
528,healdsburg,38.6105,-122.8692,35.73,39,0,5.66,US,1690499841
529,narasannapeta,18.4167,84.05,26.57,89,88,4.55,IN,1690499841
530,talara,-4.5772,-81.2719,26.42,65,0,6.17,PE,1690499842
531,cuajinicuilapa,16.4667,-98.4167,31.75,60,90,3.93,MX,1690499842
532,gereida,11.2811,25.1414,24.66,78,51,3.5,SD,1690499842
533,les cayes,18.2,-73.75,28.75,72,32,3.43,HT,1690499842
534,paidha,2.4167,30.9855,16.0,91,7,1.52,UG,1690499843
535,seydi,39.4816,62.9137,29.76,32,4,5.13,TM,1690499844
536,nelson bay,-32.7167,152.15,16.11,82,0,2.68,AU,1690499845
537,sao paulo de olivenca,-3.3783,-68.8725,27.76,66,86,0.9,BR,1690499845
538,mariehamn,60.0973,19.9348,16.01,100,20,0.51,AX,1690499846
539,yuzhno-kurilsk,44.0306,145.8556,21.8,84,33,1.46,RU,1690499846
540,comodoro rivadavia,-45.8667,-67.5,1.92,75,0,1.54,AR,1690499846
541,touros,-5.1989,-35.4608,24.92,85,1,5.96,BR,1690499847
542,mansa,29.9833,75.3833,28.17,81,80,1.73,IN,1690499847
543,kaihua,23.3687,104.28,19.67,97,100,0.55,CN,1690499848
544,horta,38.5333,-28.6333,22.23,97,83,2.68,PT,1690499849
545,pitimbu,-7.4706,-34.8086,24.33,86,6,5.27,BR,1690499849
546,sao vicente,-23.9631,-46.3919,23.1,26,97,0.89,BR,1690499791
547,male,4.1748,73.5089,27.97,89,75,1.54,MV,1690499850
548,al ghayzah,16.2079,52.176,24.8,89,97,5.75,YE,1690499851
549,cide,41.8921,33.0044,20.86,81,93,10.32,TR,1690499851
550,al kharijah,25.4514,30.5464,31.61,16,23,2.62,EG,1690499851
551,almeirim,-1.5233,-52.5817,28.13,58,86,1.84,BR,1690499852
552,tuy hoa,13.0833,109.3,27.36,75,93,6.99,VN,1690499852
553,nchelenge,-9.3451,28.734,18.33,51,8,1.29,ZM,1690499852
554,vylkove,45.4021,29.586,16.16,72,79,8.37,UA,1690499852
555,vizinga,61.0749,50.1031,14.79,93,35,3.68,RU,1690499853
556,babolsar,36.7025,52.6576,25.29,69,3,2.32,IR,1690499853
557,galax,36.6612,-80.924,30.75,74,0,2.57,US,1690499854
558,goianesia,-15.3175,-49.1175,23.52,30,78,1.3,BR,1690499854
559,mingshui,36.7167,117.5,26.33,84,61,2.96,CN,1690499854
560,oriximina,-1.7656,-55.8661,29.31,47,16,1.43,BR,1690499854
561,inirida,3.8653,-67.9239,24.84,94,100,0.45,CO,1690499854
562,sola,-13.8833,167.55,25.03,77,100,12.7,VU,1690499855
563,ouesso,1.6136,16.0517,23.43,80,72,0.69,CG,1690499855
564,n'zeto,-7.2312,12.8666,21.1,89,28,4.06,AO,1690499855
565,vung tau,10.346,107.0843,26.63,87,100,6.54,VN,1690499856
566,lebu,-37.6167,-73.65,11.64,92,100,1.2,CL,1690499852
